date,time,millis,ax,ay,az,rollrate,pitchrate,yawrate,roll,pitch,yaw,speed,course,latitude,longitude,altitude,pdop,hdop,vdop,epe,fix,satellites_view,satellites_used,temp
210214,75851600,1392969531204.0168,0.1078,0.5589,-10.0512,0.9714,1.7142,-0.4571,-178.79,176.03,165.84,33.78,59.7,51.031121,13.725052,112.03,2.75,2.56,0.99,3.8,3,8,4,30.84
210214,75851700,1392969531228.554,0.0588,0.6864,-9.4236,0.8,2.2285,-0.4,-178.8899,175.65,165.63,33.86,59.95,51.031121,13.725052,112.03,2.75,2.56,0.99,3.8,3,8,4,30.84
210214,75851700,1392969531262.811,-0.4216,0.2353,-10.0413,0.9142,0.4,-0.4,-178.73,176.32,165.35,33.86,59.95,51.031121,13.725052,112.03,2.75,2.56,0.99,3.8,3,8,4,30.84
210214,75851700,1392969531283.8882,-0.7354,0.4608,-10.2865,0.4,1.0285,-0.2285,-178.36,175.69,165.06,33.86,59.95,51.031121,13.725052,112.03,2.75,2.56,0.99,3.8,3,8,4,30.84
210214,75851700,1392969531317.259,-0.9904,0.2157,-11.375,0.6285,0.2285,-0.3428,-177.94,175.73,164.79,33.86,59.95,51.031121,13.725052,112.03,2.75,2.56,0.99,3.8,3,8,4,30.84
210214,75851700,1392969531345.637,-0.1765,0.5001,-8.8548,0.1714,1.7714,-0.2285,-178.51,175.74,164.47,33.86,59.95,51.031125,13.725064,112.02,2.75,2.56,0.99,3.81,3,8,4,30.84
210214,75851800,1392969531382.772,-0.3628,0.3824,-9.198,0.5714,2.4571,-0.1142,-177.66,175.35,164.03,33.96,60.51,51.031125,13.725064,112.02,2.75,2.56,0.99,3.81,3,8,4,30.84
210214,75851800,1392969531413.563,-0.2353,0.3039,-9.8158,0.8571,1.2571,-0.2285,-178.41,175.54,163.52,33.96,60.51,51.031125,13.725064,112.02,2.75,2.56,0.99,3.81,3,8,4,30.84
210214,75851800,1392969531434.3281,-0.5099,0.2353,-10.0512,0.6857,1.6571,-0.1142,-178.36,175.4199,163.06,33.96,60.51,51.031125,13.725064,112.02,2.75,2.56,0.99,3.81,3,8,4,30.84
210214,75851800,1392969531665.543,-0.5393,0.1765,-9.3647,1.1428,1.3142,-0.2285,-178.52,175.55,162.66,33.96,60.51,51.031125,13.725064,112.02,2.75,2.56,0.99,3.81,3,8,4,30.84
210214,75851800,1392969531706.431,-0.1667,-0.2941,-10.5218,1.4285,0.5714,-0.2285,-179.15,175.96,162.31,33.96,60.51,51.031129,13.725077,112.01,2.74,2.56,0.99,3.81,3,8,4,30.84
210214,75851900,1392969531745.76,0.3235,0.1961,-8.7371,0.8,2.4571,-0.2857,-179.08,175.66,161.8,34.07,60.92,51.031129,13.725077,112.01,2.74,2.56,0.99,3.81,3,8,4,30.84
210214,75851900,1392969531772.5142,1.1865,0.1372,-9.6197,1.5428,2.4,-0.3428,-179.02,175.85,161.42,34.07,60.92,51.031129,13.725077,112.01,2.74,2.56,0.99,3.81,3,8,4,30.84
210214,75851900,1392969531795.425,0.2549,0.4216,-9.6785,1.5428,1.3142,-0.4,-179.31,175.79,161.09,34.07,60.92,51.031129,13.725077,112.01,2.74,2.56,0.99,3.81,3,8,4,30.84
210214,75851900,1392969531818.085,0.0392,0.2451,-10.6395,1.3714,0.4571,-0.4571,-179.37,176.55,160.56,34.07,60.92,51.031129,13.725077,112.01,2.74,2.56,0.99,3.81,3,8,4,30.84
210214,75851900,1392969531853.3699,-0.0294,0.4706,-10.2865,1.3142,0.9142,-0.4571,-179.23,175.95,160.11,34.07,60.92,51.031133,13.725089,112.01,2.75,2.56,0.99,3.81,3,8,4,30.84
210214,75852000,1392969531937.727,0.3137,0.6079,-9.4628,0.9714,1.8857,-0.5142,-178.98,175.3899,159.81,34.1599,61.06,51.031133,13.725089,112.01,2.75,2.56,0.99,3.81,3,8,4,30.84
210214,75852000,1392969531958.721,0.2745,0.5883,-10.208,0.9714,1.0285,-0.4,-178.1399,175.48,159.43,34.1599,61.06,51.031133,13.725089,112.01,2.75,2.56,0.99,3.81,3,8,4,30.84
210214,75852000,1392969531986.386,0.4804,0.7648,-9.1294,0.6285,1.3714,-0.2857,-177.98,175.4,159.01,34.1599,61.06,51.031133,13.725089,112.01,2.75,2.56,0.99,3.81,3,8,4,30.84
210214,75852000,1392969532018.5671,-0.1372,0.451,-9.9237,1.0857,0.6857,-0.2857,-178.1699,175.57,158.66,34.1599,61.06,51.031133,13.725089,112.01,2.75,2.56,0.99,3.81,3,8,4,30.84
210214,75852000,1392969532093.739,-0.7942,0.2157,-10.4042,1.0285,-0.4571,-0.3428,-178.26,175.63,158.2,34.1599,61.06,51.031138,13.725101,111.99,2.75,2.56,0.99,3.82,3,8,4,30.84
210214,75852100,1392969532137.1519,-0.5785,0.6962,-10.0119,0.6857,0.0571,-0.3428,-177.94,174.77,157.78,34.24,61.29,51.031138,13.725101,111.99,2.75,2.56,0.99,3.82,3,8,4,30.84
210214,75852100,1392969532157.711,-0.4804,0.4608,-9.7276,0.9714,-0.1714,-0.3428,-177.66,175.04,157.34,34.24,61.29,51.031138,13.725101,111.99,2.75,2.56,0.99,3.82,3,8,4,30.84
210214,75852100,1392969532189.439,-0.5001,0.2059,-9.1588,1.4285,0.9714,-0.3428,-176.82,175.25,156.9,34.24,61.29,51.031138,13.725101,111.99,2.75,2.56,0.99,3.82,3,8,4,30.84
210214,75852100,1392969532217.122,-0.1667,0.1667,-10.0708,0.9142,2.6857,-0.1142,-177.3899,175.24,156.5,34.24,61.29,51.031138,13.725101,111.99,2.75,2.56,0.99,3.82,3,8,4,30.84
210214,75852100,1392969532245.945,-0.2059,0.4706,-10.512,1.2,1.7142,-0.1142,-177.74,174.95,156.0799,34.24,61.29,51.031142,13.725114,111.98,2.75,2.56,0.99,3.82,3,8,4,30.84
210214,75852200,1392969532286.7588,-0.6079,0.5295,-10.0512,0.8571,1.1428,-0.1714,-177.83,175.36,155.6399,34.34,61.29,51.031142,13.725114,111.98,2.75,2.56,0.99,3.82,3,8,4,30.84
210214,75852200,1392969532306.588,-0.8531,0.3824,-9.6981,0.2857,0.8,-0.1714,-177.9,175.46,155.2,34.34,61.29,51.031142,13.725114,111.98,2.75,2.56,0.99,3.82,3,8,4,30.84
210214,75852200,1392969532333.261,-0.5197,0.5295,-10.2865,0.9714,-0.3428,-0.2857,-177.83,175.08,154.8299,34.34,61.29,51.031142,13.725114,111.98,2.75,2.56,0.99,3.82,3,8,4,30.84
210214,75852200,1392969532355.0151,0.6471,0.049,-9.806,0.8571,2.1142,-0.2857,-178.48,175.81,154.4,34.34,61.29,51.031142,13.725114,111.98,2.75,2.56,0.99,3.82,3,8,4,30.84
210214,75852200,1392969532387.347,0.5001,0.1863,-9.502,1.6571,1.4285,-0.2285,-178.82,175.79,154.13,34.34,61.29,51.031146,13.725127,111.98,2.75,2.56,0.99,3.82,3,8,4,30.84
210214,75852300,1392969532437.286,0.6177,0.1176,-8.3939,1.7714,2.7428,-0.4,-179.02,175.82,153.9,34.42,61.23,51.031146,13.725127,111.98,2.75,2.56,0.99,3.82,3,8,4,30.84
210214,75852300,1392969532464.559,0.1863,0.657,-9.9629,1.6,1.3142,-0.4571,-178.82,175.57,153.59,34.42,61.23,51.031146,13.725127,111.98,2.75,2.56,0.99,3.82,3,8,4,30.84
210214,75852300,1392969532502.1108,0.1078,0.8531,-9.8158,2.2857,0.3428,-0.5714,-179.02,175.36,153.4,34.42,61.23,51.031146,13.725127,111.98,2.75,2.56,0.99,3.82,3,8,4,30.84
210214,75852300,1392969532526.0999,0.0098,0.5589,-9.9629,2.3428,0.5714,-0.4,-178.88,175.93,153.12,34.42,61.23,51.031146,13.725127,111.98,2.75,2.56,0.99,3.82,3,8,4,30.84
210214,75852300,1392969532553.8052,-0.1274,0.0588,-9.9041,1.7714,0.7428,-0.5142,-178.59,176.7,152.68,34.42,61.23,51.03115,13.725139,111.98,2.75,2.56,0.99,3.82,3,8,4,30.84
210214,75852400,1392969532604.6318,0.2451,0.2647,-9.4726,1.8285,1.8285,-0.3428,-178.3,176.04,152.37,34.51,61.19,51.03115,13.725139,111.98,2.75,2.56,0.99,3.82,3,8,4,30.84
210214,75852400,1392969532627.179,0.402,0.2647,-9.0804,1.4857,2.1714,-0.3428,-177.76,175.56,152.01,34.51,61.19,51.03115,13.725139,111.98,2.75,2.56,0.99,3.82,3,8,4,30.84
210214,75852400,1392969532645.773,-0.0294,0.5981,-9.855,1.3142,1.5428,-0.4,-177.37,175.1699,151.72,34.51,61.19,51.03115,13.725139,111.98,2.75,2.56,0.99,3.82,3,8,4,30.84
210214,75852400,1392969532669.042,0.1274,0.5883,-10.2179,1.2,1.0285,-0.2857,-177.91,175.71,151.34,34.51,61.19,51.03115,13.725139,111.98,2.75,2.56,0.99,3.82,3,8,4,30.84
210214,75852400,1392969532724.146,-0.6079,0.3235,-9.9237,0.7428,0.9714,-0.4,-177.57,175.99,150.96,34.51,61.19,51.031155,13.725152,111.99,10.3,3.59,9.66,3.82,3,8,4,30.84
210214,75852500,1392969532752.157,-0.8237,0.2549,-11.0416,0.6857,0.8,-0.3428,-177.49,175.86,150.7,34.61,61.2,51.031155,13.725152,111.99,10.3,3.59,9.66,3.82,3,8,4,30.84
210214,75852500,1392969532793.627,-0.7256,0.5099,-10.4728,0.4,1.0857,-0.1714,-177.58,175.65,150.42,34.61,61.2,51.031155,13.725152,111.99,10.3,3.59,9.66,3.82,3,8,4,30.86
210214,75852500,1392969532824.1428,-0.5589,0.2059,-9.6981,0.6285,2.1142,-0.2857,-177.9199,176.18,150.13,34.61,61.2,51.031155,13.725152,111.99,10.3,3.59,9.66,3.82,3,8,4,30.86
210214,75852500,1392969532842.794,-0.2157,0.2157,-10.1296,0.3428,2.3428,-0.2285,-177.57,175.94,149.69,34.61,61.2,51.031155,13.725152,111.99,10.3,3.59,9.66,3.82,3,8,4,30.86
210214,75852500,1392969532869.147,-0.0196,0.2745,-9.6099,0.1714,2.5142,0.0,-177.61,175.77,149.34,34.61,61.2,51.031159,13.725165,112.0,2.74,2.56,0.99,3.83,3,8,4,30.86
210214,75852600,1392969532925.093,-0.1863,0.1863,-9.6785,0.0,2.5142,-0.1714,-177.95,175.99,149.01,34.69,61.26,51.031159,13.725165,112.0,2.74,2.56,0.99,3.83,3,8,4,30.86
210214,75852600,1392969532946.9841,-1.5689,-0.5099,-8.6097,-0.2285,1.1428,-0.0571,-176.05,176.35,148.71,34.69,61.26,51.031159,13.725165,112.0,2.74,2.56,0.99,3.83,3,8,4,30.86
210214,75852600,1392969532977.179,-0.1274,0.1274,-10.9239,-1.4285,0.3428,-0.0571,-178.1,176.6,148.4,34.69,61.26,51.031159,13.725165,112.0,2.74,2.56,0.99,3.83,3,8,4,30.86
210214,75852600,1392969533012.182,0.2843,1.4611,-9.0705,0.5142,2.0,-0.2285,-179.84,175.02,148.3299,34.69,61.26,51.031159,13.725165,112.0,2.74,2.56,0.99,3.83,3,8,4,30.86
210214,75852600,1392969533043.552,-1.3532,1.059,-11.7868,3.3142,0.0571,-0.7428,-178.32,174.09,148.35,34.69,61.26,51.031163,13.725177,112.0,2.75,2.56,0.99,3.84,3,8,4,30.86
210214,75852700,1392969533084.817,1.1865,0.147,-7.227,1.2571,1.8857,-0.4,-179.46,175.6699,148.32,34.75,61.34,51.031163,13.725177,112.0,2.75,2.56,0.99,3.84,3,8,4,30.86
210214,75852700,1392969533112.168,0.2157,-0.6962,-9.6295,3.0857,2.8571,-0.2857,-178.34,176.44,148.15,34.75,61.34,51.031163,13.725177,112.0,2.75,2.56,0.99,3.84,3,8,4,30.86
210214,75852700,1392969533125.753,0.3628,0.2549,-10.3453,1.4857,1.7714,-0.2857,-179.6,176.48,147.87,34.75,61.34,51.031163,13.725177,112.0,2.75,2.56,0.99,3.84,3,8,4,30.86
210214,75852700,1392969533153.234,0.2843,-0.2451,-9.8844,1.9428,2.1142,-0.4,-179.13,175.99,147.72,34.75,61.34,51.031163,13.725177,112.0,2.75,2.56,0.99,3.84,3,8,4,30.86
210214,75852700,1392969533201.551,0.7942,0.1765,-8.7273,0.5142,2.0,-0.5714,-178.34,176.68,147.5,34.75,61.34,51.031167,13.72519,112.01,2.75,2.56,0.99,3.84,3,8,4,30.86
210214,75852800,1392969533232.1538,0.3137,0.0588,-10.2277,1.6571,0.6857,-0.3428,-179.1,177.7,147.13,34.81,61.41,51.031167,13.72519,112.01,2.75,2.56,0.99,3.84,3,8,4,30.86
210214,75852800,1392969533253.24,-0.6962,-0.2745,-10.9533,2.0571,-0.8,-0.5142,-179.08,176.96,146.92,34.81,61.41,51.031167,13.72519,112.01,2.75,2.56,0.99,3.84,3,8,4,30.86
210214,75852800,1392969533273.227,0.6962,0.8433,-9.4138,1.7142,-0.2857,-0.5714,-179.8899,176.72,146.75,34.81,61.41,51.031167,13.72519,112.01,2.75,2.56,0.99,3.84,3,8,4,30.86
210214,75852800,1392969533322.156,0.0882,-0.2157,-9.7668,1.3142,0.0,-0.5714,-179.65,177.44,146.45,34.81,61.41,51.031167,13.72519,112.01,2.75,2.56,0.99,3.84,3,8,4,30.86
210214,75852800,1392969533353.938,1.0982,-1.01,-10.1296,1.5428,-0.0571,-0.5714,-179.55,178.6699,146.13,34.81,61.41,51.031171,13.725203,112.02,2.74,2.56,0.99,3.84,3,8,4,30.86
210214,75852900,1392969533414.557,0.0,1.3336,-9.806,-0.1142,0.2285,-0.4,-177.98,175.87,145.94,34.84,61.47,51.031171,13.725203,112.02,2.74,2.56,0.99,3.84,3,8,4,30.86
210214,75852900,1392969533438.981,1.3434,0.8335,-7.786,0.4,0.9142,-0.0571,-179.27,176.06,145.75,34.84,61.47,51.031171,13.725203,112.02,2.74,2.56,0.99,3.84,3,8,4,30.86
210214,75852900,1392969533463.215,0.1274,1.01,-12.1595,2.1714,-0.4,-0.5142,-178.56,174.65,145.75,34.84,61.47,51.031171,13.725203,112.02,2.74,2.56,0.99,3.84,3,8,4,30.86
210214,75852900,1392969533485.5298,0.049,0.804,-9.4824,-0.7428,0.0,-0.1142,-178.53,175.26,145.66,34.84,61.47,51.031171,13.725203,112.02,2.74,2.56,0.99,3.84,3,8,4,30.86
210214,75852900,1392969533523.273,0.0,0.2255,-9.7962,1.3142,0.0,-0.3428,-177.52,176.11,145.54,34.84,61.47,51.031175,13.725215,112.03,2.75,2.56,0.99,3.83,3,8,4,30.86
210214,75853000,1392969533554.363,-0.5393,0.6962,-9.0902,0.3428,0.1142,0.0571,-177.48,175.2,145.41,34.86,61.43,51.031175,13.725215,112.03,2.75,2.56,0.99,3.83,3,8,4,30.86
210214,75853000,1392969533582.219,-2.0494,1.1767,-11.679,0.6285,-0.5714,-0.2285,-176.94,174.44,145.38,34.86,61.43,51.031175,13.725215,112.03,2.75,2.56,0.99,3.83,3,8,4,30.86
210214,75853000,1392969533612.7231,-0.3824,1.7945,-10.5022,-1.4285,-0.5714,-0.2857,-178.3,175.4,145.26,34.86,61.43,51.031175,13.725215,112.03,2.75,2.56,0.99,3.83,3,8,4,30.86
210214,75853000,1392969533634.044,-0.3039,-0.2353,-10.7474,1.2,0.2285,-0.5142,-178.33,176.29,145.1,34.86,61.43,51.031175,13.725215,112.03,2.75,2.56,0.99,3.83,3,8,4,30.86
210214,75853000,1392969533666.58,-0.0784,1.3238,-9.0019,-0.4571,3.7142,-0.2857,-177.78,175.38,145.02,34.86,61.43,51.031179,13.725228,112.06,10.31,3.59,9.66,3.83,3,8,4,30.86
210214,75853100,1392969533703.197,-1.5689,0.1078,-10.3944,1.5428,0.9714,-0.4571,-176.94,174.46,144.98,34.86,61.44,51.031179,13.725228,112.06,10.31,3.59,9.66,3.83,3,8,4,30.86
210214,75853100,1392969533726.409,0.2451,0.1568,-10.0904,0.4,2.6857,-0.4,-178.35,176.71,144.93,34.86,61.44,51.031179,13.725228,112.06,10.31,3.59,9.66,3.83,3,8,4,30.86
210214,75853100,1392969533753.279,0.0882,0.4706,-9.9237,0.7428,2.2285,-0.2285,-178.38,176.45,144.81,34.86,61.44,51.031179,13.725228,112.06,10.31,3.59,9.66,3.83,3,8,4,30.86
210214,75853100,1392969533772.9148,-1.0492,0.4118,-9.6687,0.5142,1.8857,-0.4571,-177.94,175.96,144.74,34.86,61.44,51.031179,13.725228,112.06,10.31,3.59,9.66,3.83,3,8,4,30.86
210214,75853100,1392969533822.211,-0.8237,0.2059,-9.9531,-0.2857,0.7428,-0.3428,-177.76,176.53,144.74,34.86,61.44,51.031183,13.72524,112.08,10.31,3.59,9.66,3.83,3,8,4,30.86
210214,75853200,1392969533853.601,-1.1963,0.1078,-10.6199,0.4,0.5714,-0.4571,-178.33,176.75,144.75,34.87,61.4,51.031183,13.72524,112.08,10.31,3.59,9.66,3.83,3,8,4,30.86
210214,75853200,1392969533873.572,-0.9511,-0.0784,-10.1982,0.2285,0.5142,-0.6285,-178.1,177.1399,144.77,34.87,61.4,51.031183,13.72524,112.08,10.31,3.59,9.66,3.83,3,8,4,30.86
210214,75853200,1392969533902.619,-0.5883,0.1863,-10.3061,-0.5142,1.3142,-0.5714,-179.23,177.72,144.73,34.87,61.4,51.031183,13.72524,112.08,10.31,3.59,9.66,3.83,3,8,4,30.86
210214,75853200,1392969533932.148,-0.3235,0.6275,-10.2179,0.2285,0.9714,-0.8,-179.3,177.1,144.79,34.87,61.4,51.031183,13.72524,112.08,10.31,3.59,9.66,3.83,3,8,4,30.86
210214,75853200,1392969533966.48,-0.2255,0.755,-8.8646,-0.0571,2.8,-0.9142,-179.02,176.55,144.91,34.87,61.4,51.031188,13.725253,112.09,10.29,3.59,9.64,3.83,3,8,4,30.86
210214,75853300,1392969534013.738,0.2451,0.4608,-9.7668,0.6285,0.9142,-1.0857,-179.48,176.77,145.07,34.86,61.29,51.031188,13.725253,112.09,10.29,3.59,9.64,3.83,3,8,4,30.86
210214,75853300,1392969534036.8809,0.3628,0.3726,-9.551,0.8,1.7714,-1.2,-179.8899,177.43,145.15,34.86,61.29,51.031188,13.725253,112.09,10.29,3.59,9.64,3.83,3,8,4,30.86
210214,75853300,1392969534063.2688,0.5001,0.7746,-9.2372,0.8571,2.9142,-1.2571,179.87,176.63,145.28,34.86,61.29,51.031188,13.725253,112.09,10.29,3.59,9.64,3.83,3,8,4,30.86
210214,75853300,1392969534089.79,0.6373,0.147,-9.2569,1.2,3.2571,-1.2571,179.76,177.51,145.43,34.86,61.29,51.031188,13.725253,112.09,10.29,3.59,9.64,3.83,3,8,4,30.86
210214,75853300,1392969534132.542,0.2059,0.4216,-9.0509,1.1428,2.5142,-1.3714,-179.77,176.63,145.53,34.86,61.29,51.031192,13.725265,112.1,10.3,3.59,9.65,3.82,3,8,4,30.86
210214,75853400,1392969534157.447,0.657,0.7648,-9.1784,1.3142,2.7428,-1.4285,-179.79,176.06,145.5799,34.87,61.26,51.031192,13.725265,112.1,10.3,3.59,9.65,3.82,3,8,4,30.86
210214,75853400,1392969534185.294,0.5883,0.8433,-9.4726,1.1428,2.2857,-1.4857,179.67,176.45,145.6,34.87,61.26,51.031192,13.725265,112.1,10.3,3.59,9.65,3.82,3,8,4,30.86
210214,75853400,1392969534214.0989,-0.1568,0.5491,-10.0119,1.0857,1.3142,-1.6,179.99,176.82,145.59,34.87,61.26,51.031192,13.725265,112.1,10.3,3.59,9.65,3.82,3,8,4,30.86
210214,75853400,1392969534244.838,0.1078,0.1765,-10.2375,1.1428,1.1428,-1.6571,179.54,177.58,145.65,34.87,61.26,51.031192,13.725265,112.1,10.3,3.59,9.65,3.82,3,8,4,30.86
210214,75853400,1392969534266.346,0.0784,0.6766,-10.0806,0.7428,1.0285,-1.7142,179.86,176.98,145.7,34.87,61.26,51.031196,13.725278,112.12,10.31,3.59,9.66,3.82,3,8,4,30.86
210214,75853500,1392969534317.179,0.3235,1.1571,-9.5216,1.1428,1.0857,-1.8285,179.5799,176.26,145.8,34.86,61.29,51.031196,13.725278,112.12,10.31,3.59,9.66,3.82,3,8,4,30.86
210214,75853500,1392969534337.802,0.5981,0.8237,-10.1296,1.6571,1.0857,-1.9428,179.1,177.04,145.87,34.86,61.29,51.031196,13.725278,112.12,10.31,3.59,9.66,3.82,3,8,4,30.86
210214,75853500,1392969534358.215,0.3334,0.8433,-10.3649,1.2571,1.2,-1.9428,179.16,176.91,145.87,34.86,61.29,51.031196,13.725278,112.12,10.31,3.59,9.66,3.82,3,8,4,30.86
210214,75853500,1392969534390.7869,0.7648,0.657,-9.7668,1.3714,1.6,-2.0571,179.25,176.81,145.8899,34.86,61.29,51.031196,13.725278,112.12,10.31,3.59,9.66,3.82,3,8,4,30.86
210214,75853500,1392969534434.376,0.6962,0.657,-9.4334,1.7142,2.0,-2.0,179.6499,176.8899,145.93,34.86,61.29,51.0312,13.72529,112.13,2.75,2.56,0.99,3.83,3,8,4,30.86
210214,75853600,1392969534457.377,1.0492,0.4412,-9.8354,1.8285,2.1714,-1.8857,179.66,176.91,145.94,34.87,61.33,51.0312,13.72529,112.13,2.75,2.56,0.99,3.83,3,8,4,30.86
210214,75853600,1392969534485.677,0.7354,0.353,-10.6689,1.2571,1.7714,-1.8285,179.32,177.26,145.92,34.87,61.33,51.0312,13.72529,112.13,2.75,2.56,0.99,3.83,3,8,4,30.86
210214,75853600,1392969534512.241,0.6766,0.7746,-10.3944,-0.0571,1.1428,-1.7142,179.16,177.34,145.85,34.87,61.33,51.0312,13.72529,112.13,2.75,2.56,0.99,3.83,3,8,4,30.86
210214,75853600,1392969534533.579,-0.2059,0.8139,-10.7964,-0.6857,-0.5142,-1.8285,179.6,177.1,145.75,34.87,61.33,51.0312,13.72529,112.13,2.75,2.56,0.99,3.83,3,8,4,30.86
210214,75853600,1392969534558.124,0.2843,0.8531,-10.0904,-1.2571,-0.6857,-2.0571,-179.99,176.96,145.69,34.87,61.33,51.031204,13.725303,112.16,2.75,2.56,0.99,3.83,3,8,4,30.86
210214,75853700,1392969534602.509,-0.3432,0.8433,-10.5905,-1.4857,-0.6857,-1.8285,-179.32,176.5,145.6399,34.88,61.38,51.031204,13.725303,112.16,2.75,2.56,0.99,3.83,3,8,4,30.86
210214,75853700,1392969534626.7468,-0.353,0.9217,-10.816,-1.3142,-0.9714,-1.8857,-179.61,176.53,145.66,34.88,61.38,51.031204,13.725303,112.16,2.75,2.56,0.99,3.83,3,8,4,30.86
210214,75853700,1392969534653.412,-0.6275,1.0688,-10.8356,-0.6857,-1.3714,-2.1142,179.87,175.77,145.67,34.88,61.38,51.031204,13.725303,112.16,2.75,2.56,0.99,3.83,3,8,4,30.86
210214,75853700,1392969534673.853,-0.9315,1.363,-9.5412,-0.0571,-0.1142,-2.1142,-179.72,174.63,145.71,34.88,61.38,51.031204,13.725303,112.16,2.75,2.56,0.99,3.83,3,8,4,30.86
210214,75853700,1392969534718.001,-1.0982,1.6179,-9.855,0.5142,-0.1714,-2.1714,-179.09,173.9199,145.85,34.88,61.38,51.031208,13.725315,112.19,2.75,2.56,0.99,3.84,3,8,4,30.86
210214,75853800,1392969534745.327,-0.5981,1.412,-10.0904,0.6857,-0.2285,-2.1714,-179.1,173.76,146.0,34.89,61.49,51.031208,13.725315,112.19,2.75,2.56,0.99,3.84,3,8,4,30.86
210214,75853800,1392969534772.369,-0.6373,1.5395,-9.6883,0.9142,1.1428,-2.0571,-178.8,173.46,146.19,34.89,61.49,51.031208,13.725315,112.19,2.75,2.56,0.99,3.84,3,8,4,30.86
210214,75853800,1392969534802.249,-0.5687,1.3924,-9.7668,1.8285,1.6571,-2.1714,-178.75,173.03,146.45,34.89,61.49,51.031208,13.725315,112.19,2.75,2.56,0.99,3.84,3,8,4,30.86
210214,75853800,1392969534825.007,-1.0394,1.3042,-9.2274,2.4571,1.6,-2.3428,-177.93,172.93,146.77,34.89,61.49,51.031208,13.725315,112.19,2.75,2.56,0.99,3.84,3,8,4,30.86
210214,75853800,1392969534853.7659,-0.2157,0.5981,-9.3843,2.8,2.7428,-2.2285,-178.3899,174.34,146.92,34.89,61.49,51.031212,13.725328,112.22,2.75,2.56,0.99,3.84,3,8,4,30.86
210214,75853900,1392969534885.9912,-0.4216,0.6079,-9.6981,2.0571,3.1428,-2.1714,-178.23,174.68,146.95,34.92,61.35,51.031212,13.725328,112.22,2.75,2.56,0.99,3.84,3,8,4,30.86
210214,75853900,1392969534914.711,-0.5589,0.8531,-10.6297,1.7142,3.8285,-2.2285,-178.33,174.9199,146.93,34.92,61.35,51.031212,13.725328,112.22,2.75,2.56,0.99,3.84,3,8,4,30.86
210214,75853900,1392969534943.284,-0.1961,0.4608,-9.7177,0.3428,3.7142,-2.2857,-178.48,175.59,146.79,34.92,61.35,51.031212,13.725328,112.22,2.75,2.56,0.99,3.84,3,8,4,30.86
210214,75853900,1392969534966.1091,-0.8237,0.1667,-9.5707,0.4,3.3142,-2.2857,-178.3,175.35,146.68,34.92,61.35,51.031212,13.725328,112.22,2.75,2.56,0.99,3.84,3,8,4,30.86
210214,75853900,1392969534996.254,-0.1765,0.5393,-9.4628,0.3428,4.0571,-2.2857,-178.91,175.55,146.51,34.92,61.35,51.031216,13.725341,112.25,2.75,2.56,0.99,3.84,3,8,4,30.86
210214,75854000,1392969535033.112,-0.2451,0.8139,-10.3748,0.3428,3.2,-2.3428,-179.22,175.1699,146.41,34.97,61.7,51.031216,13.725341,112.25,2.75,2.56,0.99,3.84,3,8,4,30.86
210214,75854000,1392969535054.485,-0.4706,0.8629,-9.6981,0.7428,2.5142,-2.2857,-179.35,174.9,146.31,34.97,61.7,51.031216,13.725341,112.25,2.75,2.56,0.99,3.84,3,8,4,30.86
210214,75854000,1392969535078.2559,-0.9511,1.059,-10.2767,1.2571,1.3142,-2.1714,179.99,174.6,146.29,34.97,61.7,51.031216,13.725341,112.25,2.75,2.56,0.99,3.84,3,8,4,30.86
210214,75854000,1392969535105.4321,-0.7746,1.2943,-10.1688,1.2571,1.5428,-2.2285,179.13,174.62,146.28,34.97,61.7,51.031216,13.725341,112.25,2.75,2.56,0.99,3.84,3,8,4,30.86
210214,75854000,1392969535138.745,-0.8237,1.2453,-10.6689,1.8285,0.1142,-2.0,179.32,175.03,146.22,34.97,61.7,51.03122,13.725354,112.28,2.74,2.56,0.99,3.83,3,8,4,30.86
210214,75854100,1392969535165.375,-0.9217,1.2943,-10.5513,2.1714,-0.5142,-1.8285,178.91,175.11,146.17,35.04,62.15,51.03122,13.725354,112.28,2.74,2.56,0.99,3.83,3,8,4,30.86
210214,75854100,1392969535193.4111,-1.01,0.402,-10.5611,2.4,-0.4,-1.7714,179.11,175.65,146.15,35.04,62.15,51.03122,13.725354,112.28,2.74,2.56,0.99,3.83,3,8,4,30.86
210214,75854100,1392969535222.906,-0.4706,0.4706,-9.8452,2.7428,-0.5142,-1.7714,179.72,175.73,146.11,35.04,62.15,51.03122,13.725354,112.28,2.74,2.56,0.99,3.83,3,8,4,30.86
210214,75854100,1392969535253.292,-0.6668,0.7256,-10.7964,1.8857,-0.3428,-1.6,-179.84,176.1399,145.97,35.04,62.15,51.03122,13.725354,112.28,2.74,2.56,0.99,3.83,3,8,4,30.86
210214,75854100,1392969535314.1191,-0.3039,0.4118,-10.4434,2.3428,0.4571,-1.6571,-178.69,176.33,145.81,35.04,62.15,51.031224,13.725367,112.3,2.74,2.56,0.99,3.83,3,8,4,30.86
210214,75854200,1392969535344.76,-0.0686,0.353,-9.8452,1.6571,1.0857,-1.5428,-178.5,176.62,145.6,35.09,62.57,51.031224,13.725367,112.3,2.74,2.56,0.99,3.83,3,8,4,30.86
210214,75854200,1392969535365.918,-0.451,0.3235,-9.9335,1.4857,1.7142,-1.6571,-178.66,176.52,145.46,35.09,62.57,51.031224,13.725367,112.3,2.74,2.56,0.99,3.83,3,8,4,30.86
210214,75854200,1392969535402.159,-0.2451,0.0294,-10.2571,1.8857,1.0285,-1.7142,-178.54,177.1699,145.34,35.09,62.57,51.031224,13.725367,112.3,2.74,2.56,0.99,3.83,3,8,4,30.86
210214,75854200,1392969535422.877,0.8727,0.0098,-9.3255,1.7142,2.4,-1.4857,-179.11,177.73,145.19,35.09,62.57,51.031224,13.725367,112.3,2.74,2.56,0.99,3.83,3,8,4,30.86
210214,75854200,1392969535453.803,0.6766,0.0392,-9.4628,2.0,2.1714,-1.5428,-179.53,177.58,145.01,35.09,62.57,51.031227,13.725381,112.32,2.75,2.56,0.99,3.83,3,8,4,30.86
210214,75854300,1392969535478.2878,0.5981,-0.1176,-10.1394,1.8285,1.7714,-1.6571,-179.57,178.1399,144.78,35.15,63.07,51.031227,13.725381,112.32,2.75,2.56,0.99,3.83,3,8,4,30.86
210214,75854300,1392969535517.972,0.5001,0.2059,-9.4236,1.2,2.5714,-1.3714,-179.37,177.36,144.57,35.15,63.07,51.031227,13.725381,112.32,2.75,2.56,0.99,3.83,3,8,4,30.86
210214,75854300,1392969535542.37,0.5197,0.1176,-8.9038,1.7142,2.3428,-1.5428,-179.2,177.15,144.45,35.15,63.07,51.031227,13.725381,112.32,2.75,2.56,0.99,3.83,3,8,4,30.86
210214,75854300,1392969535573.2278,0.8923,0.0588,-9.198,1.0857,2.6857,-1.3714,-179.23,177.3,144.31,35.15,63.07,51.031227,13.725381,112.32,2.75,2.56,0.99,3.83,3,8,4,30.86
210214,75854300,1392969535614.054,0.5589,-0.1078,-9.8158,1.2,1.5428,-1.3714,-179.46,177.98,144.09,35.15,63.07,51.031231,13.725394,112.35,2.74,2.56,0.99,3.83,3,8,4,30.86
210214,75854400,1392969535644.177,0.2647,0.0294,-9.1882,0.8571,1.7142,-1.3714,-178.98,176.72,143.96,35.2,63.17,51.031231,13.725394,112.35,2.74,2.56,0.99,3.83,3,8,4,30.86
210214,75854400,1392969535665.976,0.9904,0.3137,-8.5312,0.6285,2.4571,-1.2,-179.69,176.78,143.91,35.2,63.17,51.031231,13.725394,112.35,2.74,2.56,0.99,3.83,3,8,4,30.86
210214,75854400,1392969535694.725,0.5491,0.4314,-9.0902,1.4857,1.7142,-1.2571,-179.85,176.59,143.8899,35.2,63.17,51.031231,13.725394,112.35,2.74,2.56,0.99,3.83,3,8,4,30.86
210214,75854400,1392969535723.478,0.2255,0.4118,-9.9433,1.6,1.9428,-1.3714,-179.86,176.83,143.82,35.2,63.17,51.031231,13.725394,112.35,2.74,2.56,0.99,3.83,3,8,4,30.86
210214,75854400,1392969535746.781,0.147,0.3628,-10.0119,1.7142,1.8285,-1.2,179.8899,176.73,143.75,35.2,63.17,51.031235,13.725407,112.36,2.74,2.56,0.99,3.83,3,8,4,30.86
210214,75854500,1392969535784.865,0.3726,0.2843,-9.453,1.8857,1.8857,-1.2571,-179.8,176.75,143.68,35.27,63.22,51.031235,13.725407,112.36,2.74,2.56,0.99,3.83,3,8,4,30.86
210214,75854500,1392969535814.933,0.0784,0.3334,-9.6883,2.3428,2.1142,-1.2,-179.81,176.4199,143.6399,35.27,63.22,51.031235,13.725407,112.36,2.74,2.56,0.99,3.83,3,8,4,30.88
210214,75854500,1392969535844.301,0.147,0.049,-9.2961,2.6285,1.8285,-1.0857,-179.6399,176.82,143.59,35.27,63.22,51.031235,13.725407,112.36,2.74,2.56,0.99,3.83,3,8,4,30.88
210214,75854500,1392969535865.989,0.4706,0.0882,-10.1296,2.4571,1.8857,-0.9142,179.93,177.65,143.44,35.27,63.22,51.031235,13.725407,112.36,2.74,2.56,0.99,3.83,3,8,4,30.88
210214,75854500,1392969535905.7332,0.0196,0.5295,-9.855,2.9714,0.9714,-0.9714,179.94,176.69,143.34,35.27,63.22,51.031239,13.72542,112.38,2.74,2.56,0.99,3.84,3,8,4,30.88
210214,75854600,1392969535944.345,0.3137,0.1863,-9.2078,3.3714,1.6,-0.8571,179.66,177.55,143.28,35.33,63.3,51.031239,13.72542,112.38,2.74,2.56,0.99,3.84,3,8,4,30.88
210214,75854600,1392969535963.387,-0.3628,0.5491,-9.9237,2.9714,0.7428,-0.8571,179.94,177.0,143.1399,35.33,63.3,51.031239,13.72542,112.38,2.74,2.56,0.99,3.84,3,8,4,30.88
210214,75854600,1392969535987.1409,0.0,-0.3726,-9.9237,3.2571,0.5714,-0.8571,-179.4199,178.65,143.03,35.33,63.3,51.031239,13.72542,112.38,2.74,2.56,0.99,3.84,3,8,4,30.88
210214,75854600,1392969536024.76,0.0098,-0.0882,-9.8943,2.8571,0.7428,-0.5142,-179.9,179.27,142.78,35.33,63.3,51.031239,13.72542,112.38,2.74,2.56,0.99,3.84,3,8,4,30.88
210214,75854600,1392969536074.099,0.2059,0.2843,-9.6785,3.2,0.6285,-0.6857,-179.68,178.3899,142.65,35.33,63.3,51.031243,13.725433,112.41,2.74,2.56,0.99,3.85,3,8,4,30.88
210214,75854700,1392969536133.717,0.147,0.147,-10.0119,3.4285,0.4571,-0.5142,-180.0,178.7,142.49,35.4,63.32,51.031243,13.725433,112.41,2.74,2.56,0.99,3.85,3,8,4,30.88
210214,75854700,1392969536154.897,0.1372,-0.0784,-9.6197,3.2,0.5142,-0.2285,-179.36,179.13,142.3,35.4,63.32,51.031243,13.725433,112.41,2.74,2.56,0.99,3.85,3,8,4,30.88
210214,75854700,1392969536192.352,-0.0784,-0.0196,-9.6393,3.2,1.1428,-0.1714,-178.8,178.91,142.11,35.4,63.32,51.031243,13.725433,112.41,2.74,2.56,0.99,3.85,3,8,4,30.88
210214,75854700,1392969536212.177,-0.0588,-0.1961,-10.3944,2.9714,1.0857,0.0571,-179.23,179.1399,141.77,35.4,63.32,51.031243,13.725433,112.41,2.74,2.56,0.99,3.85,3,8,4,30.88
210214,75854700,1392969536245.961,0.049,0.2745,-9.8452,3.4285,1.9428,0.1142,-178.86,178.25,141.67,35.4,63.32,51.031246,13.725446,112.43,2.74,2.56,0.99,3.85,3,8,4,30.88
210214,75854800,1392969536285.208,0.4608,-0.0784,-9.5216,3.3714,1.2571,-0.1142,-178.96,178.95,141.51,35.44,63.48,51.031246,13.725446,112.43,2.74,2.56,0.99,3.85,3,8,4,30.88
210214,75854800,1392969536307.558,-0.0294,-0.3432,-10.0806,3.5428,1.2,0.2285,-179.43,179.77,141.34,35.44,63.48,51.031246,13.725446,112.43,2.74,2.56,0.99,3.85,3,8,4,30.88
210214,75854800,1392969536326.117,0.5001,-0.0294,-9.7374,3.2,1.7714,0.2857,-179.94,-179.88,141.1,35.44,63.48,51.031246,13.725446,112.43,2.74,2.56,0.99,3.85,3,8,4,30.88
210214,75854800,1392969536353.43,0.3628,0.3039,-9.855,3.3714,1.3142,0.1714,179.35,179.44,140.93,35.44,63.48,51.031246,13.725446,112.43,2.74,2.56,0.99,3.85,3,8,4,30.88
210214,75854800,1392969536393.172,0.4216,0.0,-10.3453,3.4857,1.0857,0.1714,179.54,179.65,140.77,35.44,63.48,51.03125,13.725459,112.46,2.74,2.56,0.99,3.85,3,8,4,30.88
210214,75854900,1392969536426.434,0.6471,-0.0392,-9.8746,2.7428,1.7714,0.4,179.51,-179.87,140.57,35.46,63.57,51.03125,13.725459,112.46,2.74,2.56,0.99,3.85,3,8,4,30.88
210214,75854900,1392969536453.265,-0.0294,-0.3432,-10.4042,2.9714,1.1428,0.5142,-179.63,-179.93,140.28,35.46,63.57,51.03125,13.725459,112.46,2.74,2.56,0.99,3.85,3,8,4,30.88
210214,75854900,1392969536474.416,1.5689,-0.2059,-9.4824,2.6857,2.3428,0.5142,179.92,-179.51,139.93,35.46,63.57,51.03125,13.725459,112.46,2.74,2.56,0.99,3.85,3,8,4,30.88
210214,75854900,1392969536506.5442,0.4706,-0.1372,-10.3355,3.4857,0.8571,0.6285,179.49,-179.8,139.73,35.46,63.57,51.03125,13.725459,112.46,2.74,2.56,0.99,3.85,3,8,4,30.88
210214,75854900,1392969536533.339,1.5297,-0.6766,-9.8354,3.7142,1.5428,0.7428,179.45,-178.62,139.6,35.46,63.57,51.031254,13.725472,112.48,2.75,2.56,0.99,3.85,3,8,4,30.88
210214,75855000,1392969536566.686,0.5589,-0.3628,-8.9529,3.2,1.5428,0.7428,179.41,-178.84,139.42,35.47,63.69,51.031254,13.725472,112.48,2.75,2.56,0.99,3.85,3,8,4,30.88
210214,75855000,1392969536594.086,0.9119,-0.2255,-9.9237,3.4285,0.7428,0.8571,179.49,-178.6,139.25,35.47,63.69,51.031254,13.725472,112.48,2.75,2.56,0.99,3.85,3,8,4,30.88
210214,75855000,1392969536617.579,0.6275,-0.1765,-9.8746,3.2571,0.6857,1.0857,-179.53,-179.24,138.99,35.47,63.69,51.031254,13.725472,112.48,2.75,2.56,0.99,3.85,3,8,4,30.88
210214,75855000,1392969536652.072,0.6962,-0.4608,-9.5608,3.7142,1.0285,1.0857,-179.1699,-179.3,138.74,35.47,63.69,51.031254,13.725472,112.48,2.75,2.56,0.99,3.85,3,8,4,30.88
210214,75855000,1392969536693.049,0.706,-0.147,-9.7276,3.9428,-0.2285,1.1428,-178.88,-179.99,138.47,35.47,63.69,51.031258,13.725486,112.49,2.74,2.56,0.99,3.85,3,8,4,30.88
210214,75855100,1392969536730.43,0.5001,-0.6668,-9.6099,3.2571,0.9714,1.3142,-178.34,-179.57,138.18,35.53,63.7,51.031258,13.725486,112.49,2.74,2.56,0.99,3.85,3,8,4,30.88
210214,75855100,1392969536746.0352,1.2551,-0.8629,-8.894,3.6571,1.8857,1.5428,-178.65,-178.33,137.92,35.53,63.7,51.031258,13.725486,112.49,2.74,2.56,0.99,3.85,3,8,4,30.88
210214,75855100,1392969536773.224,0.1961,-0.6373,-10.2669,3.1428,0.8,1.5428,-178.6399,-178.61,137.57,35.53,63.7,51.031258,13.725486,112.49,2.74,2.56,0.99,3.85,3,8,4,30.88
210214,75855100,1392969536803.5122,0.2451,-0.7746,-9.5216,2.8,1.3714,1.6571,-178.11,-178.26,137.21,35.53,63.7,51.031258,13.725486,112.49,2.74,2.56,0.99,3.85,3,8,4,30.88
210214,75855100,1392969536832.0972,0.2255,-0.8237,-9.1196,2.8,2.0571,1.8285,-177.02,-178.98,136.81,35.53,63.7,51.031261,13.725499,112.51,2.74,2.56,0.99,3.85,3,8,4,30.88
210214,75855200,1392969536864.889,0.3432,-0.9609,-9.9335,3.2,2.1714,1.8857,-178.0,-179.2,136.46,35.62,64.03,51.031261,13.725499,112.51,2.74,2.56,0.99,3.85,3,8,4,30.88
210214,75855200,1392969536887.176,0.8237,-1.1571,-9.5412,3.3142,2.2285,2.0,-178.1,-178.79,136.11,35.62,64.03,51.031261,13.725499,112.51,2.74,2.56,0.99,3.85,3,8,4,30.88
210214,75855200,1392969536913.915,0.2059,-0.6373,-8.9823,3.0285,2.6285,1.9428,-177.76,-178.95,135.78,35.62,64.03,51.031261,13.725499,112.51,2.74,2.56,0.99,3.85,3,8,4,30.88
210214,75855200,1392969536934.605,0.8923,-0.7158,-9.0019,3.3142,3.0857,1.9428,-179.04,-178.49,135.42,35.62,64.03,51.031261,13.725499,112.51,2.74,2.56,0.99,3.85,3,8,4,30.88
210214,75855200,1392969536983.306,0.9806,-0.9904,-10.0021,2.9142,3.0857,2.0571,-179.03,-178.0,134.95,35.62,64.03,51.031265,13.725513,112.53,2.74,2.56,0.99,3.84,3,8,4,30.88
210214,75855300,1392969537013.949,1.1276,-0.3726,-8.5508,3.4285,2.5714,2.0,-178.93,-178.57,134.63,36.0,64.13,51.031265,13.725513,112.53,2.74,2.56,0.99,3.84,3,8,4,30.88
210214,75855300,1392969537035.47,0.5785,-0.5491,-8.9529,3.2571,2.4,2.2285,-178.96,-178.45,134.34,36.0,64.13,51.031265,13.725513,112.53,2.74,2.56,0.99,3.84,3,8,4,30.88
210214,75855300,1392969537057.738,0.4608,-0.9609,-10.3257,2.9714,1.2571,2.3428,-178.81,-178.12,133.97,36.0,64.13,51.031265,13.725513,112.53,2.74,2.56,0.99,3.84,3,8,4,30.88
210214,75855300,1392969537078.5588,1.0198,-0.755,-9.1,2.3428,2.1714,2.3428,-179.01,-177.6699,133.59,36.0,64.13,51.031265,13.725513,112.53,2.74,2.56,0.99,3.84,3,8,4,30.88
210214,75855300,1392969537118.074,0.6177,-0.9511,-9.8158,2.9714,1.8285,2.4571,-178.49,-177.27,133.15,36.0,64.13,51.031269,13.725527,112.54,10.29,3.59,9.65,3.84,3,8,4,30.88
210214,75855400,1392969537155.486,0.4216,-0.755,-8.9333,2.7428,2.8,2.4571,-178.15,-177.68,132.75,36.07,64.54,51.031269,13.725527,112.54,10.29,3.59,9.65,3.84,3,8,4,30.88
210214,75855400,1392969537183.254,0.9806,-1.2355,-9.4824,2.7428,2.1142,2.4571,-178.99,-177.21,132.37,36.07,64.54,51.031269,13.725527,112.54,10.29,3.59,9.65,3.84,3,8,4,30.88
210214,75855400,1392969537205.7158,0.9217,-1.01,-9.7766,2.4571,2.5142,2.5714,-178.79,-177.57,131.96,36.07,64.54,51.031269,13.725527,112.54,10.29,3.59,9.65,3.84,3,8,4,30.88
210214,75855400,1392969537233.26,1.3042,-0.6177,-9.8452,2.7428,1.8285,2.5714,-179.24,-177.78,131.65,36.07,64.54,51.031269,13.725527,112.54,10.29,3.59,9.65,3.84,3,8,4,30.88
210214,75855400,1392969537272.846,0.3137,-0.9806,-10.0217,2.6285,1.7142,2.5142,-179.07,-177.34,131.32,36.07,64.54,51.031273,13.72554,112.55,2.75,2.56,0.99,3.84,3,8,4,30.88
210214,75855500,1392969537298.1921,0.2549,-1.0198,-9.6197,2.0571,1.0285,2.8,-178.19,-177.35,130.82,36.21,64.44,51.031273,13.72554,112.55,2.75,2.56,0.99,3.84,3,8,4,30.88
210214,75855500,1392969537332.788,0.4412,-0.3235,-9.9237,2.3428,1.2,2.8,-178.43,-178.4,130.47,36.21,64.44,51.031273,13.72554,112.55,2.75,2.56,0.99,3.84,3,8,4,30.88
210214,75855500,1392969537353.911,0.2745,-0.6177,-9.3843,2.3428,1.2,2.5714,-178.99,-177.9199,130.31,36.21,64.44,51.031273,13.72554,112.55,2.75,2.56,0.99,3.84,3,8,4,30.88
210214,75855500,1392969537375.353,0.402,-0.5981,-10.0512,2.2857,0.9714,2.9142,-179.65,-176.86,130.03,36.21,64.44,51.031273,13.72554,112.55,2.75,2.56,0.99,3.84,3,8,4,30.88
210214,75855500,1392969537413.1392,0.6275,-0.8923,-9.8943,2.4571,0.5142,2.7428,-179.96,-176.44,129.67,36.21,64.44,51.031277,13.725554,112.57,2.74,2.56,0.99,3.84,3,8,4,30.88
210214,75855600,1392969537446.873,0.6864,-0.5491,-9.3843,2.5714,1.0285,2.6285,-179.98,-176.78,129.42,36.29,64.44,51.031277,13.725554,112.57,2.74,2.56,0.99,3.84,3,8,4,30.88
210214,75855600,1392969537473.474,0.1667,-0.9511,-9.9727,1.7714,1.1428,2.5714,-179.21,-176.07,129.17,36.29,64.44,51.031277,13.725554,112.57,2.74,2.56,0.99,3.84,3,8,4,30.88
210214,75855600,1392969537497.521,0.4608,-0.4608,-10.208,1.8285,1.3714,2.5142,-179.04,-176.75,128.88,36.29,64.44,51.031277,13.725554,112.57,2.74,2.56,0.99,3.84,3,8,4,30.88
210214,75855600,1392969537524.518,0.1372,-1.1178,-9.9923,1.2571,1.3142,2.8,-179.55,-175.61,128.52,36.29,64.44,51.031277,13.725554,112.57,2.74,2.56,0.99,3.84,3,8,4,30.88
210214,75855600,1392969537547.481,-0.2255,-0.9904,-10.6003,1.4857,0.8571,2.8,-179.2,-175.77,128.24,36.29,64.44,51.031281,13.725567,112.58,2.74,2.56,0.99,3.84,3,8,4,30.88
210214,75855700,1392969537585.6172,-0.2059,-0.6766,-9.5412,1.3714,0.8,2.6285,-179.27,-176.22,128.04,36.36,64.4,51.031281,13.725567,112.58,2.74,2.56,0.99,3.84,3,8,4,30.88
210214,75855700,1392969537614.622,-0.0784,-0.6373,-9.4922,1.3142,1.2,2.5142,-179.18,-176.45,127.87,36.36,64.4,51.031281,13.725567,112.58,2.74,2.56,0.99,3.84,3,8,4,30.88
210214,75855700,1392969537636.4219,-0.1274,-0.7158,-9.6001,0.4,1.7142,2.6857,-178.93,-176.2,127.71,36.36,64.4,51.031281,13.725567,112.58,2.74,2.56,0.99,3.84,3,8,4,30.88
210214,75855700,1392969537673.255,-0.657,-0.2647,-10.5513,0.5142,0.9142,2.4571,-178.84,-177.22,127.62,36.36,64.4,51.031281,13.725567,112.58,2.74,2.56,0.99,3.84,3,8,4,30.88
210214,75855700,1392969537699.386,-0.4118,-0.5981,-10.1296,0.2857,0.6857,2.3428,-179.29,-176.55,127.53,36.36,64.4,51.031285,13.72558,112.58,2.75,2.56,0.99,3.83,3,8,4,30.88
210214,75855800,1392969537742.0051,-0.3824,-0.7158,-9.2176,0.7428,1.4285,2.5142,-178.9199,-176.7,127.43,36.4099,64.08,51.031285,13.72558,112.58,2.75,2.56,0.99,3.83,3,8,4,30.88
210214,75855800,1392969537757.664,0.0098,-0.6275,-9.6099,0.7428,1.6,2.2857,179.55,-176.11,127.29,36.4099,64.08,51.031285,13.72558,112.58,2.75,2.56,0.99,3.83,3,8,4,30.88
210214,75855800,1392969537778.196,-0.3334,-0.2647,-9.9727,0.0,1.6571,2.2285,179.99,-177.04,127.19,36.4099,64.08,51.031285,13.72558,112.58,2.75,2.56,0.99,3.83,3,8,4,30.88
210214,75855800,1392969537805.292,-0.1274,-0.1274,-9.7962,-0.3428,2.5714,2.1142,-179.31,-177.73,127.15,36.4099,64.08,51.031285,13.72558,112.58,2.75,2.56,0.99,3.83,3,8,4,30.88
210214,75855800,1392969537839.3691,-0.657,-0.2451,-9.9629,-0.4,2.1714,2.0,-179.36,-177.7,127.15,36.4099,64.08,51.031289,13.725594,112.59,2.75,2.56,0.99,3.83,3,8,4,30.88
210214,75855900,1392969537883.178,-0.2843,-0.5001,-9.3451,-1.3142,3.6,1.8857,-179.6,-177.44,127.17,36.51,63.73,51.031289,13.725594,112.59,2.75,2.56,0.99,3.83,3,8,4,30.88
210214,75855900,1392969537913.12,-0.1765,-0.7844,-9.9335,-1.6571,3.8285,1.7714,179.41,-176.19,127.17,36.51,63.73,51.031289,13.725594,112.59,2.75,2.56,0.99,3.83,3,8,4,30.88
210214,75855900,1392969537934.102,-0.3726,-0.3235,-10.2767,-1.8857,3.3714,1.2,179.49,-177.1,127.06,36.51,63.73,51.031289,13.725594,112.59,2.75,2.56,0.99,3.83,3,8,4,30.88
210214,75855900,1392969537955.549,0.1078,-0.2255,-9.2274,-2.4,4.3428,1.1428,178.66,-177.15,126.92,36.51,63.73,51.031289,13.725594,112.59,2.75,2.56,0.99,3.83,3,8,4,30.88
210214,75855900,1392969537996.897,0.147,0.0784,-9.8354,-1.7142,3.4285,1.0285,177.82,-177.62,126.83,36.51,63.73,51.031293,13.725607,112.6,2.75,2.56,0.99,3.82,3,8,4,30.88
210214,75856000,1392969538033.633,0.9609,0.4314,-9.7864,-1.0857,4.1142,0.9714,176.05,-177.58,126.76,36.57,63.46,51.031293,13.725607,112.6,2.75,2.56,0.99,3.82,3,8,4,30.88
210214,75856000,1392969538054.594,-0.2255,0.2451,-11.5221,-0.9142,2.6285,0.9142,176.3299,-177.85,126.7,36.57,63.46,51.031293,13.725607,112.6,2.75,2.56,0.99,3.82,3,8,4,30.88
210214,75856000,1392969538072.106,0.9119,-0.049,-10.6101,-1.0285,2.4,0.8571,175.61,-177.25,126.64,36.57,63.46,51.031293,13.725607,112.6,2.75,2.56,0.99,3.82,3,8,4,30.88
210214,75856000,1392969538112.181,0.0686,0.1961,-11.0906,-0.8571,1.5428,0.8571,176.16,-177.6,126.54,36.57,63.46,51.031293,13.725607,112.6,2.75,2.56,0.99,3.82,3,8,4,30.88
210214,75856000,1392969538135.604,0.7942,0.5393,-10.1394,-0.0571,2.1714,0.9142,176.25,-178.18,126.46,36.57,63.46,51.031298,13.725621,112.64,2.26,2.04,0.96,3.82,3,7,5,30.88
210214,75856100,1392969538173.823,0.2059,-0.0686,-11.1298,0.6285,1.0285,0.8571,176.18,-177.78,126.5,36.64,63.17,51.031298,13.725621,112.64,2.26,2.04,0.96,3.82,3,7,5,30.88
210214,75856100,1392969538196.803,0.4608,0.0686,-10.6395,-0.2285,0.6285,0.8,176.26,-177.13,126.45,36.64,63.17,51.031298,13.725621,112.64,2.26,2.04,0.96,3.82,3,7,5,30.88
210214,75856100,1392969538224.931,0.706,-0.3137,-10.8552,0.0,-0.2857,0.8,175.8899,-176.45,126.38,36.64,63.17,51.031298,13.725621,112.64,2.26,2.04,0.96,3.82,3,7,5,30.88
210214,75856100,1392969538246.1938,0.7256,0.2647,-10.3453,0.2857,-0.4,0.7428,175.8999,-177.34,126.22,36.64,63.17,51.031298,13.725621,112.64,2.26,2.04,0.96,3.82,3,7,5,30.88
210214,75856100,1392969538285.317,0.1274,-0.0784,-9.9727,0.2857,-0.5714,0.8,178.4599,-178.2,126.16,36.64,63.17,51.031302,13.725634,112.64,4.35,2.55,3.53,3.8,3,7,5,30.88
210214,75856200,1392969538325.409,-0.2451,-0.0784,-11.424,-0.0571,-2.2857,0.8571,177.4599,-177.19,126.1,36.72,62.98,51.031302,13.725634,112.7,4.35,2.55,3.53,3.8,3,7,5,30.88
210214,75856200,1392969538346.591,0.1274,-0.1274,-10.6199,0.9142,-2.1142,0.5714,177.8299,-178.26,126.0,36.72,62.98,51.031302,13.725634,112.7,4.35,2.55,3.53,3.8,3,7,5,30.88
210214,75856200,1392969538373.2659,0.8629,-0.3824,-10.1296,0.6285,-1.0285,0.8,176.74,-176.63,125.94,36.72,62.98,51.031302,13.725634,112.7,4.35,2.55,3.53,3.8,3,7,5,30.88
210214,75856200,1392969538394.866,-0.1961,0.1863,-10.6199,1.4285,-2.0,0.9714,178.2099,-179.3,125.83,36.72,62.98,51.031302,13.725634,112.7,4.35,2.55,3.53,3.8,3,7,5,30.88
210214,75856200,1392969538626.062,0.2647,0.2941,-9.6981,1.8857,-0.8,0.7428,179.31,179.83,125.96,36.72,62.98,51.031306,13.725648,112.7,4.35,2.55,3.53,3.79,3,8,5,30.88
210214,75856300,1392969538665.893,0.1765,0.147,-10.5611,1.9428,-0.4571,0.9142,179.13,-179.41,126.08,36.8,62.84,51.031306,13.725648,112.77,4.35,2.55,3.53,3.79,3,8,5,30.88
210214,75856300,1392969538705.1138,-0.3628,0.1863,-10.512,2.5714,-0.4,0.9714,179.9599,179.93,126.23,36.8,62.84,51.031306,13.725648,112.77,4.35,2.55,3.53,3.79,3,8,5,30.88
210214,75856300,1392969538727.072,0.0392,-0.0686,-10.1492,3.0285,0.1142,0.8,179.48,-179.46,126.38,36.8,62.84,51.031306,13.725648,112.77,4.35,2.55,3.53,3.79,3,8,5,30.88
210214,75856300,1392969538753.281,-0.8237,-0.049,-9.8844,1.6571,-0.2285,0.9142,179.5799,-178.63,126.39,36.8,62.84,51.031306,13.725648,112.77,4.35,2.55,3.53,3.79,3,8,5,30.88
210214,75856300,1392969538775.815,-0.3432,-0.4412,-10.3453,2.4571,-0.4571,0.8571,-179.72,-179.19,126.44,36.8,62.84,51.03131,13.725662,112.77,2.26,2.04,0.96,3.78,3,8,5,30.88
210214,75856400,1392969538814.625,-0.1863,-0.6275,-9.1392,2.2285,0.3428,0.8,179.8999,-177.78,126.4,36.86,62.78,51.03131,13.725662,112.82,2.26,2.04,0.96,3.78,3,8,5,30.88
210214,75856400,1392969538837.7449,-0.402,-0.6668,-10.8847,1.7714,0.9714,0.9142,-179.78,-177.6,126.27,36.86,62.78,51.03131,13.725662,112.82,2.26,2.04,0.96,3.78,3,8,5,30.88
210214,75856400,1392969538883.055,-0.2843,-0.049,-10.3649,1.0857,0.4,0.8571,178.93,-177.07,126.17,36.86,62.78,51.03131,13.725662,112.82,2.26,2.04,0.96,3.78,3,8,5,30.88
210214,75856400,1392969538922.3489,-0.8335,0.1372,-10.061,2.0571,0.6285,0.8,179.25,-178.1399,126.19,36.86,62.78,51.03131,13.725662,112.82,2.26,2.04,0.96,3.78,3,8,5,30.88
210214,75856400,1392969538952.3252,-0.9119,-0.8825,-9.9335,1.4857,0.0571,0.6857,179.75,-177.24,126.2,36.86,62.78,51.031314,13.725675,112.82,4.35,2.55,3.53,3.77,3,8,5,30.88
210214,75856500,1392969538999.384,-0.8433,-0.3628,-10.3159,0.9714,0.6857,0.6857,-179.46,-177.93,126.17,36.93,62.79,51.031314,13.725675,112.89,4.35,2.55,3.53,3.77,3,8,5,30.88
210214,75856500,1392969539051.311,-0.5295,-0.5687,-10.1198,1.4285,1.3714,0.9142,179.54,-177.1699,126.16,36.93,62.79,51.031314,13.725675,112.89,4.35,2.55,3.53,3.77,3,8,5,30.9
210214,75856500,1392969539074.43,-0.0882,0.049,-10.1884,1.7714,1.4285,0.8571,178.69,-177.5,126.13,36.93,62.79,51.031314,13.725675,112.89,4.35,2.55,3.53,3.77,3,8,5,30.9
210214,75856500,1392969539098.209,-0.5589,0.0588,-10.3061,1.4285,1.4285,0.8,178.2,-177.4,126.12,36.93,62.79,51.031314,13.725675,112.89,4.35,2.55,3.53,3.77,3,8,5,30.9
210214,75856500,1392969539134.933,-0.3628,-0.2745,-9.8746,1.7714,0.8,0.8,177.6399,-176.77,126.13,36.93,62.79,51.031318,13.725688,112.89,2.26,2.04,0.96,3.77,3,8,5,30.9
210214,75856600,1392969539173.928,-0.402,-0.1568,-9.6687,1.2,1.8285,0.9142,178.5,-176.63,126.11,36.9799,62.8,51.031318,13.725688,112.95,2.26,2.04,0.96,3.77,3,8,5,30.9
210214,75856600,1392969539195.6921,-0.1274,-0.5589,-9.9237,1.0857,1.3142,0.9714,177.97,-175.8,126.08,36.9799,62.8,51.031318,13.725688,112.95,2.26,2.04,0.96,3.77,3,8,5,30.9
210214,75856600,1392969539237.353,-0.0392,-0.4118,-10.4042,1.4285,1.5428,0.9714,177.8,-175.97,125.99,36.9799,62.8,51.031318,13.725688,112.95,2.26,2.04,0.96,3.77,3,8,5,30.9
210214,75856600,1392969539263.274,-0.3235,-0.7158,-9.4922,1.2571,1.9428,0.8,177.73,-175.51,125.95,36.9799,62.8,51.031318,13.725688,112.95,2.26,2.04,0.96,3.77,3,8,5,30.9
210214,75856600,1392969539302.73,0.2451,-0.755,-9.9237,0.6857,1.7142,0.6857,178.2099,-175.44,125.81,36.9799,62.8,51.031322,13.725702,112.95,2.26,2.04,0.96,3.76,3,8,5,30.9
210214,75856700,1392969539337.458,0.402,-0.5883,-9.7766,0.9714,2.5714,0.6857,178.3899,-176.36,125.74,37.02,62.78,51.031322,13.725702,113.02,2.26,2.04,0.96,3.76,3,8,5,30.9
210214,75856700,1392969539363.7139,0.8237,-0.2745,-9.7472,1.1428,3.3142,0.6857,176.6499,-175.49,125.77,37.02,62.78,51.031322,13.725702,113.02,2.26,2.04,0.96,3.76,3,8,5,30.9
210214,75856700,1392969539383.044,1.0002,-0.0784,-9.2274,0.8,3.2571,0.8,176.88,-175.76,125.73,37.02,62.78,51.031322,13.725702,113.02,2.26,2.04,0.96,3.76,3,8,5,30.9
210214,75856700,1392969539410.1602,1.0492,-0.8335,-8.7175,1.3142,2.7428,0.5714,176.7699,-175.35,125.75,37.02,62.78,51.031322,13.725702,113.02,2.26,2.04,0.96,3.76,3,8,5,30.9
210214,75856700,1392969539454.572,0.8629,-0.9511,-8.5999,1.6,3.0857,0.6285,176.4599,-174.59,125.8,37.02,62.78,51.031326,13.725715,113.02,2.26,2.04,0.96,3.75,3,8,5,30.9
210214,75856800,1392969539478.353,1.1178,-0.7746,-9.7668,1.0857,2.8571,0.6857,176.42,-174.26,125.78,37.05,62.68,51.031326,13.725715,113.12,2.26,2.04,0.96,3.75,3,8,5,30.9
210214,75856800,1392969539512.207,1.1375,-0.451,-9.7079,0.9142,2.8571,0.8,175.1,-173.91,125.75,37.05,62.68,51.031326,13.725715,113.12,2.26,2.04,0.96,3.75,3,8,5,30.9
210214,75856800,1392969539530.304,0.9413,0.1078,-9.2569,0.9142,3.5428,0.7428,176.04,-175.66,125.7,37.05,62.68,51.031326,13.725715,113.12,2.26,2.04,0.96,3.75,3,8,5,30.9
210214,75856800,1392969539562.84,0.7942,-0.5295,-9.2961,1.2571,2.4571,0.6285,174.79,-173.85,125.8,37.05,62.68,51.031326,13.725715,113.12,2.26,2.04,0.96,3.75,3,8,5,30.9
210214,75856800,1392969539601.581,0.5883,-0.1274,-10.0315,0.9714,1.6571,0.5714,174.61,-174.59,125.74,37.05,62.68,51.03133,13.725728,113.12,4.35,2.55,3.53,3.74,3,8,5,30.9
210214,75856900,1392969539643.238,0.5197,-0.353,-10.6003,1.2571,0.9142,0.5142,174.42,-173.98,125.76,37.07,62.63,51.03133,13.725728,113.21,4.35,2.55,3.53,3.74,3,8,5,30.9
210214,75856900,1392969539671.9739,1.01,-0.6373,-9.9923,0.8,1.1428,0.4571,173.8899,-173.09,125.68,37.07,62.63,51.03133,13.725728,113.21,4.35,2.55,3.53,3.74,3,8,5,30.9
210214,75856900,1392969539706.842,1.1865,0.1176,-10.0119,1.0285,1.4285,0.4,173.44,-174.04,125.58,37.07,62.63,51.03133,13.725728,113.21,4.35,2.55,3.53,3.74,3,8,5,30.9
210214,75856900,1392969539730.4028,0.8727,-0.1568,-10.5022,2.3428,0.3428,0.2285,173.37,-174.41,125.56,37.07,62.63,51.03133,13.725728,113.21,4.35,2.55,3.53,3.74,3,8,5,30.9
210214,75856900,1392969539759.8528,0.5197,0.2059,-9.6883,2.2857,1.2,0.3428,174.54,-175.55,125.51,37.07,62.63,51.031334,13.725742,113.21,2.26,2.04,0.96,3.73,3,8,5,30.9
210214,75857000,1392969539787.969,1.059,-0.2059,-10.2865,2.8,0.2857,0.4571,173.79,-174.62,125.52,37.1,62.61,51.031334,13.725742,113.29,2.26,2.04,0.96,3.73,3,8,5,30.9
210214,75857000,1392969539814.18,0.9707,-0.3334,-10.3453,2.6857,0.2857,0.4,173.3399,-174.2,125.5,37.1,62.61,51.031334,13.725742,113.29,2.26,2.04,0.96,3.73,3,8,5,30.9
210214,75857000,1392969539852.8281,1.3238,-0.1765,-9.3157,2.8,1.3142,0.3428,173.9599,-174.27,125.42,37.1,62.61,51.031334,13.725742,113.29,2.26,2.04,0.96,3.73,3,8,5,30.9
210214,75857000,1392969539873.7632,1.2551,0.0392,-9.4628,2.4,1.5428,0.3428,175.13,-175.15,125.29,37.1,62.61,51.031334,13.725742,113.29,2.26,2.04,0.96,3.73,3,8,5,30.9
210214,75857000,1392969539917.457,1.0884,-0.3824,-10.0119,2.6285,0.8571,0.2285,175.68,-175.19,125.3,37.1,62.61,51.031338,13.725756,113.29,2.26,2.04,0.96,3.72,3,8,5,30.9
210214,75857100,1392969539953.1382,0.8727,-0.3726,-10.6297,2.6285,0.1714,0.2857,175.3,-174.87,125.29,37.13,62.62,51.031338,13.725756,113.38,2.26,2.04,0.96,3.72,3,8,5,30.9
210214,75857100,1392969539973.823,0.3628,-0.1863,-10.414,2.1142,0.9142,0.2857,175.75,-175.61,125.19,37.13,62.62,51.031338,13.725756,113.38,2.26,2.04,0.96,3.72,3,8,5,30.9
210214,75857100,1392969539995.902,0.0882,-0.0686,-9.9727,2.5142,0.0571,0.2285,175.48,-176.1399,125.09,37.13,62.62,51.031338,13.725756,113.38,2.26,2.04,0.96,3.72,3,8,5,30.9
210214,75857100,1392969540032.532,0.1078,0.1176,-10.1786,2.3428,-0.0571,0.2857,176.13,-176.3,125.07,37.13,62.62,51.031338,13.725756,113.38,2.26,2.04,0.96,3.72,3,8,5,30.9
210214,75857100,1392969540060.0269,-0.049,-0.1274,-10.6591,2.3428,-0.4571,0.2857,177.0299,-175.78,125.01,37.13,62.62,51.031342,13.725769,113.38,4.35,2.55,3.53,3.71,3,8,5,30.9
210214,75857200,1392969540087.989,-0.2353,0.1667,-10.718,2.3428,-0.2857,0.4571,177.01,-176.83,124.86,37.14,62.54,51.031342,13.725769,113.52,4.35,2.55,3.53,3.71,3,8,5,30.9
210214,75857200,1392969540128.865,0.1863,0.3628,-9.6197,2.4571,1.7714,0.4,176.3399,-177.01,124.8,37.14,62.54,51.031342,13.725769,113.52,4.35,2.55,3.53,3.71,3,8,5,30.9
210214,75857200,1392969540162.862,-0.1372,-0.3726,-10.2473,2.8,1.0285,0.4571,177.0799,-176.63,124.77,37.14,62.54,51.031342,13.725769,113.52,4.35,2.55,3.53,3.71,3,8,5,30.9
210214,75857200,1392969540182.868,-0.0784,-0.402,-9.6883,2.8,1.6571,0.5142,177.5299,-176.57,124.67,37.14,62.54,51.031342,13.725769,113.52,4.35,2.55,3.53,3.71,3,8,5,30.9
210214,75857200,1392969540215.647,0.0882,-0.5001,-9.6981,2.6857,2.1714,0.6285,177.45,-176.55,124.5,37.14,62.54,51.031345,13.725781,113.52,4.35,2.55,3.53,3.68,3,8,5,30.9
210214,75857300,1392969540247.2998,0.2451,-0.7256,-9.6295,2.1714,2.2857,0.6857,177.85,-176.56,124.37,37.15,62.51,51.031345,13.725781,113.77,4.35,2.55,3.53,3.68,3,8,5,30.9
210214,75857300,1392969540283.619,-0.0098,-0.3432,-9.8844,2.1142,1.1428,0.6857,177.94,-176.9199,124.21,37.15,62.51,51.031345,13.725781,113.77,4.35,2.55,3.53,3.68,3,8,5,30.9
210214,75857300,1392969540319.273,0.0392,-0.5981,-9.5903,2.2857,0.9142,0.4571,177.76,-176.46,124.04,37.15,62.51,51.031345,13.725781,113.77,4.35,2.55,3.53,3.68,3,8,5,30.9
210214,75857300,1392969540352.59,-0.5197,-0.5099,-10.5022,2.0571,0.6285,0.5142,178.16,-176.08,123.8,37.15,62.51,51.031345,13.725781,113.77,4.35,2.55,3.53,3.68,3,8,5,30.9
210214,75857300,1392969540379.668,-0.0588,0.0,-10.0119,1.0857,0.6857,0.5714,178.07,-175.96,123.53,37.15,62.51,51.031349,13.725794,113.77,4.35,2.55,3.53,3.67,3,8,5,30.9
210214,75857400,1392969540433.6519,0.2255,-0.1078,-9.3745,1.9428,1.0857,0.5142,177.07,-175.84,123.3,37.17,62.66,51.031349,13.725794,113.94,4.35,2.55,3.53,3.67,3,8,5,30.9
210214,75857400,1392969540454.968,-0.0294,-0.5197,-10.7768,2.2285,1.0285,0.4571,177.5199,-176.13,123.1,37.17,62.66,51.031349,13.725794,113.94,4.35,2.55,3.53,3.67,3,8,5,30.9
210214,75857400,1392969540477.894,0.5785,-0.5883,-8.9921,1.5428,1.7142,0.5142,177.19,-174.98,122.88,37.17,62.66,51.031349,13.725794,113.94,4.35,2.55,3.53,3.67,3,8,5,30.9
210214,75857400,1392969540504.828,0.5589,-0.4608,-9.1098,1.8857,2.8,0.4571,177.87,-175.93,122.64,37.17,62.66,51.031349,13.725794,113.94,4.35,2.55,3.53,3.67,3,8,5,30.9
210214,75857400,1392969540526.501,0.9806,-0.1961,-9.6589,2.2285,2.6285,0.4571,177.67,-176.09,122.51,37.17,62.66,51.031349,13.725794,113.94,4.35,2.55,3.53,3.67,3,8,5,30.9
210214,75857500,1392969540566.3208,1.0884,-0.451,-9.5805,1.8285,2.9714,0.2857,176.23,-174.26,122.39,37.19,62.82,51.031353,13.725807,114.09,4.35,2.55,3.53,3.65,3,8,5,30.9
210214,75857500,1392969540599.097,0.5197,-0.2843,-9.5805,2.1714,1.5428,0.1142,176.26,-174.8899,122.18,37.19,62.82,51.031353,13.725807,114.09,4.35,2.55,3.53,3.65,3,8,5,30.9
210214,75857500,1392969540626.698,0.9413,-0.4216,-9.0019,2.1142,2.1142,0.1714,175.2799,-173.2,122.0,37.19,62.82,51.031353,13.725807,114.09,4.35,2.55,3.53,3.65,3,8,5,30.9
210214,75857500,1392969540654.047,0.8923,-0.6471,-9.551,1.6571,1.4285,0.2285,175.38,-172.98,121.73,37.19,62.82,51.031353,13.725807,114.09,4.35,2.55,3.53,3.65,3,8,5,30.9
210214,75857500,1392969540678.0022,0.7256,-0.5197,-10.3944,1.7714,0.7428,0.3428,175.57,-173.63,121.46,37.19,62.82,51.031353,13.725807,114.09,4.35,2.55,3.53,3.65,3,8,5,30.9
210214,75857600,1392969540719.006,0.4412,-0.3039,-9.2471,1.8857,1.3714,0.2857,176.35,-174.68,121.21,37.21,62.81,51.031357,13.72582,114.27,2.26,2.04,0.96,3.65,3,8,5,30.9
210214,75857600,1392969540743.06,0.9217,-0.5785,-9.8354,1.8285,1.7142,0.3428,176.0299,-173.9199,121.15,37.21,62.81,51.031357,13.72582,114.27,2.26,2.04,0.96,3.65,3,8,5,30.9
210214,75857600,1392969540783.312,0.6373,-0.657,-9.5608,1.6,1.9428,0.2285,176.35,-174.1399,120.96,37.21,62.81,51.031357,13.72582,114.27,2.26,2.04,0.96,3.65,3,8,5,30.9
210214,75857600,1392969540817.323,0.8531,-0.7844,-9.8943,1.6,2.0571,0.2857,177.06,-174.82,120.86,37.21,62.81,51.031357,13.72582,114.27,2.26,2.04,0.96,3.65,3,8,5,30.9
210214,75857600,1392969540843.3052,0.3824,-0.5295,-9.8844,2.1714,1.2571,0.3428,174.68,-173.1399,120.89,37.21,62.81,51.031357,13.72582,114.27,2.26,2.04,0.96,3.65,3,8,5,30.9
210214,75857700,1392969540874.2458,0.0,-0.4118,-10.6493,1.7142,1.2,0.4,175.8399,-173.97,120.81,37.24,62.88,51.031361,13.725832,114.52,2.26,2.04,0.96,3.63,3,8,5,30.9
210214,75857700,1392969540898.0999,0.0686,-0.2745,-10.4042,1.2571,0.7428,0.3428,175.76,-174.13,120.75,37.24,62.88,51.031361,13.725832,114.52,2.26,2.04,0.96,3.63,3,8,5,30.9
210214,75857700,1392969540938.4639,-0.0294,-0.2059,-9.7079,1.0857,1.6571,0.4571,176.07,-174.37,120.65,37.24,62.88,51.031361,13.725832,114.52,2.26,2.04,0.96,3.63,3,8,5,30.9
210214,75857700,1392969540965.45,0.5295,-0.5785,-9.7766,0.9142,2.3428,0.4571,176.93,-174.6,120.47,37.24,62.88,51.031361,13.725832,114.52,2.26,2.04,0.96,3.63,3,8,5,30.9
210214,75857700,1392969540987.759,0.5393,-0.0294,-10.6689,0.7428,2.0,0.5142,176.22,-174.7,120.27,37.24,62.88,51.031361,13.725832,114.52,2.26,2.04,0.96,3.63,3,8,5,30.9
210214,75857800,1392969541023.863,0.5981,0.1078,-9.6589,1.2571,1.8857,0.4571,175.99,-174.79,120.12,37.29,62.99,51.031365,13.725845,114.74,2.26,2.04,0.96,3.61,3,8,5,30.9
210214,75857800,1392969541057.998,-0.2745,-0.5981,-10.1198,1.3142,0.6857,0.5142,175.36,-172.69,120.2,37.29,62.99,51.031365,13.725845,114.74,2.26,2.04,0.96,3.61,3,8,5,30.9
210214,75857800,1392969541086.865,-0.2157,-0.5001,-10.1786,0.6285,0.8,0.4,176.55,-173.83,120.14,37.29,62.99,51.031365,13.725845,114.74,2.26,2.04,0.96,3.61,3,8,5,30.9
210214,75857800,1392969541117.5151,0.0588,-0.5393,-10.4826,0.5714,1.2571,0.3428,176.2799,-173.6,120.17,37.29,62.99,51.031365,13.725845,114.74,2.26,2.04,0.96,3.61,3,8,5,30.9
210214,75857800,1392969541138.508,0.6962,-0.6373,-9.4922,0.5142,1.6571,0.2285,175.11,-172.43,120.18,37.29,62.99,51.031365,13.725845,114.74,2.26,2.04,0.96,3.61,3,8,5,30.9
210214,75857900,1392969541185.3171,0.9609,-0.2255,-10.0413,0.5714,1.7142,0.2857,174.73,-172.88,120.07,37.38,63.06,51.031369,13.725858,114.95,4.35,2.55,3.53,3.59,3,8,5,30.9
210214,75857900,1392969541213.361,0.6864,-0.4706,-8.9921,0.7428,1.7142,0.2857,174.7799,-172.93,119.96,37.38,63.06,51.031369,13.725858,114.95,4.35,2.55,3.53,3.59,3,8,5,30.9
210214,75857900,1392969541234.239,0.7844,-0.2059,-9.5903,0.8571,1.1428,0.2857,175.0199,-173.37,119.93,37.38,63.06,51.031369,13.725858,114.95,4.35,2.55,3.53,3.59,3,8,5,30.9
210214,75857900,1392969541258.032,1.0786,-0.5197,-9.9531,1.2571,0.9714,0.1142,174.19,-172.54,119.92,37.38,63.06,51.031369,13.725858,114.95,4.35,2.55,3.53,3.59,3,8,5,30.9
210214,75857900,1392969541281.9468,0.7158,-0.5197,-10.2375,1.2,1.6,0.1142,173.94,-172.03,119.86,37.38,63.06,51.031369,13.725858,114.95,4.35,2.55,3.53,3.59,3,8,5,30.9
210214,75858000,1392969541331.65,0.7452,-0.3235,-9.7668,1.2,1.5428,0.3428,174.3399,-173.06,119.76,37.67,63.11,51.031372,13.72587,115.24,4.36,2.55,3.53,3.57,3,8,5,30.9
210214,75858000,1392969541353.7979,1.0296,-0.3726,-8.8058,1.0857,2.0,0.2285,174.3399,-172.78,119.73,37.67,63.11,51.031372,13.72587,115.24,4.36,2.55,3.53,3.57,3,8,5,30.9
210214,75858000,1392969541375.52,0.4216,-0.5883,-10.0315,1.2571,0.8571,0.0571,175.42,-174.09,119.62,37.67,63.11,51.031372,13.72587,115.24,4.36,2.55,3.53,3.57,3,8,5,30.9
210214,75858000,1392969541413.006,-0.0392,-0.5001,-10.2375,1.2,1.4285,0.1714,175.85,-174.07,119.62,37.67,63.11,51.031372,13.72587,115.24,4.36,2.55,3.53,3.57,3,8,5,30.9
210214,75858000,1392969541443.5261,-0.0686,-0.5001,-10.7082,1.2571,0.1142,0.2857,175.41,-173.61,119.59,37.67,63.11,51.031372,13.72587,115.24,4.36,2.55,3.53,3.57,3,8,5,30.9
210214,75858100,1392969541473.123,-0.3628,-0.2255,-10.3061,0.8571,0.5714,0.1142,174.7099,-173.32,119.68,37.63,63.07,51.031376,13.725882,115.49,4.36,2.55,3.53,3.55,3,8,5,30.9
210214,75858100,1392969541504.828,-0.147,-0.5295,-10.5022,0.8571,0.5714,0.2285,174.63,-173.07,119.66,37.63,63.07,51.031376,13.725882,115.49,4.36,2.55,3.53,3.55,3,8,5,30.9
210214,75858100,1392969541533.631,0.4706,-0.3628,-8.9431,0.3428,2.1714,0.3428,174.6499,-172.58,119.63,37.63,63.07,51.031376,13.725882,115.49,4.36,2.55,3.53,3.55,3,8,5,30.9
210214,75858100,1392969541552.165,0.3726,-0.4118,-10.3748,0.4571,1.7142,0.3428,175.72,-173.8899,119.48,37.63,63.07,51.031376,13.725882,115.49,4.36,2.55,3.53,3.55,3,8,5,30.9
210214,75858100,1392969541573.3682,0.1568,-0.706,-10.8749,0.9714,0.4,0.3428,175.1399,-173.28,119.4,37.63,63.07,51.031376,13.725882,115.49,4.36,2.55,3.53,3.55,3,8,5,30.9
210214,75858200,1392969541615.1782,0.2647,-0.2353,-10.0217,0.4571,1.1428,0.4571,175.68,-174.62,119.25,37.52,62.95,51.03138,13.725894,115.69,4.36,2.55,3.53,3.53,3,8,5,30.9
210214,75858200,1392969541634.782,0.5589,-0.2843,-10.2375,0.5714,0.6857,0.2857,175.1499,-173.63,119.21,37.52,62.95,51.03138,13.725894,115.69,4.36,2.55,3.53,3.53,3,8,5,30.9
210214,75858200,1392969541662.8972,0.5883,-0.1667,-9.3647,0.3428,1.2,0.2285,175.5799,-173.84,119.13,37.52,62.95,51.03138,13.725894,115.69,4.36,2.55,3.53,3.53,3,8,5,30.9
210214,75858200,1392969541693.816,1.0884,-0.0588,-9.4432,0.5142,2.4,0.1142,175.01,-173.33,119.14,37.52,62.95,51.03138,13.725894,115.69,4.36,2.55,3.53,3.53,3,8,5,30.9
210214,75858200,1392969541731.206,1.0884,-0.2843,-10.0413,1.1428,1.0285,0.0571,173.92,-171.98,119.12,37.52,62.95,51.03138,13.725894,115.69,4.36,2.55,3.53,3.53,3,8,5,30.9
210214,75858300,1392969541766.583,0.6766,-0.0784,-9.855,1.3142,0.3428,0.1142,173.5199,-172.79,119.05,37.18,62.79,51.031384,13.725906,115.78,4.35,2.55,3.53,3.52,3,8,5,30.9
210214,75858300,1392969541793.9849,0.4608,-0.3039,-10.2571,1.9428,-0.1714,0.0571,174.54,-173.75,118.93,37.18,62.79,51.031384,13.725906,115.78,4.35,2.55,3.53,3.52,3,8,5,30.9
210214,75858300,1392969541822.908,0.6079,-0.6766,-9.4334,1.7714,0.6285,0.1714,175.13,-173.58,118.94,37.18,62.79,51.031384,13.725906,115.78,4.35,2.55,3.53,3.52,3,8,5,30.9
210214,75858300,1392969541843.041,0.4804,-0.6766,-9.8943,1.2,0.9714,0.4571,175.3999,-173.38,118.85,37.18,62.79,51.031384,13.725906,115.78,4.35,2.55,3.53,3.52,3,8,5,30.9
210214,75858300,1392969541866.507,0.2843,-0.4608,-9.9825,1.7142,0.9142,0.2285,175.81,-174.32,118.8,37.18,62.79,51.031384,13.725906,115.78,4.35,2.55,3.53,3.52,3,8,5,30.9
210214,75858400,1392969541906.515,0.1274,-0.3235,-9.7276,1.3142,0.8571,0.2857,176.16,-174.55,118.86,37.07,62.57,51.031388,13.725918,115.86,4.35,2.55,3.53,3.5,3,8,5,30.9
210214,75858400,1392969541933.106,-0.1961,-0.5393,-10.0413,1.0285,0.2857,0.2857,176.3999,-174.0,118.83,37.07,62.57,51.031388,13.725918,115.86,4.35,2.55,3.53,3.5,3,8,5,30.9
210214,75858400,1392969541954.0242,0.0686,-0.3039,-9.4922,0.9714,1.8857,0.4,177.47,-175.1699,118.85,37.07,62.57,51.031388,13.725918,115.86,4.35,2.55,3.53,3.5,3,8,5,30.9
210214,75858400,1392969541978.124,0.2843,-0.2353,-9.4824,0.9714,2.1714,0.3428,177.29,-175.27,118.93,37.07,62.57,51.031388,13.725918,115.86,4.35,2.55,3.53,3.5,3,8,5,30.9
210214,75858400,1392969542003.012,0.2843,-0.3824,-9.7962,0.9142,1.6,0.2285,176.75,-174.32,118.95,37.07,62.57,51.031388,13.725918,115.86,4.35,2.55,3.53,3.5,3,8,5,30.9
210214,75858500,1392969542043.146,0.0784,-0.2157,-10.5022,0.6857,0.7428,0.1714,176.29,-174.22,118.89,36.77,62.44,51.031392,13.725931,115.91,4.36,2.55,3.53,3.49,3,8,5,30.9
210214,75858500,1392969542083.304,0.1961,-0.6766,-9.4628,0.8,2.0,0.1142,175.72,-173.33,118.59,36.77,62.44,51.031392,13.725931,115.91,4.36,2.55,3.53,3.49,3,8,5,30.94
210214,75858500,1392969542105.808,0.8629,-0.5785,-9.7962,0.7428,2.0571,0.0571,176.88,-174.23,118.33,36.77,62.44,51.031392,13.725931,115.91,4.36,2.55,3.53,3.49,3,8,5,30.94
210214,75858500,1392969542126.686,1.2943,-0.2255,-9.3157,0.3428,2.8,0.1714,175.2099,-172.87,118.02,36.77,62.44,51.031392,13.725931,115.91,4.36,2.55,3.53,3.49,3,8,5,30.94
210214,75858500,1392969542153.306,0.2157,-0.3726,-9.9923,0.8571,1.7142,0.1142,175.11,-172.96,117.99,36.77,62.44,51.031392,13.725931,115.91,4.36,2.55,3.53,3.49,3,8,5,30.94
210214,75858600,1392969542183.213,0.3039,-0.4216,-10.0512,0.8571,1.3714,0.1142,173.82,-172.09,118.11,36.69,62.31,51.031396,13.725943,115.96,2.26,2.04,0.96,3.49,3,8,5,30.94
210214,75858600,1392969542219.477,0.7354,-0.5099,-10.0904,0.2857,1.3714,0.0571,172.8299,-170.81,118.04,36.69,62.31,51.031396,13.725943,115.96,2.26,2.04,0.96,3.49,3,8,5,30.94
210214,75858600,1392969542238.1338,0.706,-0.353,-10.3944,0.7428,1.5428,0.0571,175.2099,-173.26,117.85,36.69,62.31,51.031396,13.725943,115.96,2.26,2.04,0.96,3.49,3,8,5,30.94
